{
"type": "FeatureCollection",
"crs": { "type": "name", "properties": { "name": "urn:ogc:def:crs:OGC:1.3:CRS84" } },
                                                                                
"features": [

{ "type": "Feature", "properties": { "OBJECTID": 110, "FEATURE_ID": "F", "TRAIL": "SJ8", "POINT_NAME": null, "FCODE": null, "YEAR_": 2013, "ParkID": "SJ8", "Link": null, "Maintenanc": null, "InspCode": 0, "InspDesc": null, "InspDate": null, "InspPhoto": 0, "Installati": null, "Point_Numb": 1, "NAME": "Quidi Vidi Parking Lot" }, "geometry": { "type": "Point", "coordinates": [ -52.690713864840539, 47.583062903794854 ] } },
{ "type": "Feature", "properties": { "OBJECTID": 111, "FEATURE_ID": "F", "TRAIL": "SJ8", "POINT_NAME": null, "FCODE": null, "YEAR_": 2013, "ParkID": "SJ8", "Link": null, "Maintenanc": null, "InspCode": 0, "InspDesc": null, "InspDate": null, "InspPhoto": 0, "Installati": null, "Point_Numb": 2, "NAME": "Trail of the Caribou Memorial" }, "geometry": { "type": "Point", "coordinates": [ -52.689237893735182, 47.583334914971012 ] } },
{ "type": "Feature", "properties": { "OBJECTID": 112, "FEATURE_ID": "F", "TRAIL": "SJ8", "POINT_NAME": null, "FCODE": null, "YEAR_": 2013, "ParkID": "SJ8", "Link": null, "Maintenanc": null, "InspCode": 0, "InspDesc": null, "InspDate": null, "InspPhoto": 0, "Installati": null, "Point_Numb": 3, "NAME": "Quidi Vidi Pass Battery" }, "geometry": { "type": "Point", "coordinates": [ -52.679750815366965, 47.583624155225124 ] } },
{ "type": "Feature", "properties": { "OBJECTID": 113, "FEATURE_ID": "F", "TRAIL": "SJ8", "POINT_NAME": null, "FCODE": null, "YEAR_": 2013, "ParkID": "SJ8", "Link": null, "Maintenanc": null, "InspCode": 0, "InspDesc": null, "InspDate": null, "InspPhoto": 0, "Installati": null, "Point_Numb": 4, "NAME": "Little Rest" }, "geometry": { "type": "Point", "coordinates": [ -52.682790738296582, 47.58223627679989 ] } },
{ "type": "Feature", "properties": { "OBJECTID": 114, "FEATURE_ID": "F", "TRAIL": "SJ8", "POINT_NAME": null, "FCODE": null, "YEAR_": 2013, "ParkID": "SJ8", "Link": null, "Maintenanc": null, "InspCode": 0, "InspDesc": null, "InspDate": null, "InspPhoto": 0, "Installati": null, "Point_Numb": 5, "NAME": "Martin's Bight" }, "geometry": { "type": "Point", "coordinates": [ -52.683110379910389, 47.581679442774742 ] } },
{ "type": "Feature", "properties": { "OBJECTID": 115, "FEATURE_ID": "F", "TRAIL": "SJ8", "POINT_NAME": null, "FCODE": null, "YEAR_": 2013, "ParkID": "SJ8", "Link": null, "Maintenanc": null, "InspCode": 0, "InspDesc": null, "InspDate": null, "InspPhoto": 0, "Installati": null, "Point_Numb": 6, "NAME": "Boathouse" }, "geometry": { "type": "Point", "coordinates": [ -52.694614742300324, 47.578488873980476 ] } },
{ "type": "Feature", "properties": { "OBJECTID": 116, "FEATURE_ID": "F", "TRAIL": "SJ8", "POINT_NAME": null, "FCODE": null, "YEAR_": 2013, "ParkID": "SJ8", "Link": null, "Maintenanc": null, "InspCode": 0, "InspDesc": null, "InspDate": null, "InspPhoto": 0, "Installati": null, "Point_Numb": 7, "NAME": "Her Majesty's Penitentiary, est. 1849" }, "geometry": { "type": "Point", "coordinates": [ -52.697348505959724, 47.576930604583453 ] } },
{ "type": "Feature", "properties": { "OBJECTID": 117, "FEATURE_ID": "F", "TRAIL": "SJ8", "POINT_NAME": null, "FCODE": null, "YEAR_": 2013, "ParkID": "SJ8", "Link": null, "Maintenanc": null, "InspCode": 0, "InspDesc": null, "InspDate": null, "InspPhoto": 0, "Installati": null, "Point_Numb": 8, "NAME": "Forest Road Cemetery" }, "geometry": { "type": "Point", "coordinates": [ -52.69863582731795, 47.576867908625722 ] } },
{ "type": "Feature", "properties": { "OBJECTID": 118, "FEATURE_ID": "F", "TRAIL": "SJ8", "POINT_NAME": null, "FCODE": null, "YEAR_": 2013, "ParkID": "SJ8", "Link": null, "Maintenanc": null, "InspCode": 0, "InspDesc": null, "InspDate": null, "InspPhoto": 0, "Installati": null, "Point_Numb": 9, "NAME": "The Rower sculpture, by Morgan MacDonald" }, "geometry": { "type": "Point", "coordinates": [ -52.698720706662016, 47.577521091468945 ] } },
{ "type": "Feature", "properties": { "OBJECTID": 119, "FEATURE_ID": "F", "TRAIL": "SJ8", "POINT_NAME": null, "FCODE": null, "YEAR_": 2013, "ParkID": "SJ8", "Link": null, "Maintenanc": null, "InspCode": 0, "InspDesc": null, "InspDate": null, "InspPhoto": 0, "Installati": null, "Point_Numb": 10, "NAME": "Cole Bridge" }, "geometry": { "type": "Point", "coordinates": [ -52.699671846440381, 47.577763798527101 ] } },
{ "type": "Feature", "properties": { "OBJECTID": 120, "FEATURE_ID": "F", "TRAIL": "SJ8", "POINT_NAME": null, "FCODE": null, "YEAR_": 2013, "ParkID": "SJ8", "Link": null, "Maintenanc": null, "InspCode": 0, "InspDesc": null, "InspDate": null, "InspPhoto": 0, "Installati": null, "Point_Numb": 11, "NAME": "Helicopter Crash Memorial, by Luben Boykov and Fred Hann" }, "geometry": { "type": "Point", "coordinates": [ -52.69942735313672, 47.579551379261794 ] } },

             { "type": "Feature", "properties": { "OBJECTID": 3, "FEATURE_ID": "F", "TRAIL": "SJ1", "POINT_NAME": "1", "FCODE": "F", "YEAR_": 2012, "ParkID": "SJ1", "Link": null, "Maintenanc": null, "InspCode": 0, "InspDesc": null, "InspDate": null, "InspPhoto": 0, "Installati": null, "Point_Numb": 1, "NAME": "Cabot Tower Trailhead" }, "geometry": { "type": "Point", "coordinates": [ -52.681788, 47.570077] } },
             { "type": "Feature", "properties": { "OBJECTID": 4, "FEATURE_ID": "F", "TRAIL": "SJ1", "POINT_NAME": "2", "FCODE": "F", "YEAR_": 2012, "ParkID": "SJ1", "Link": null, "Maintenanc": null, "InspCode": 0, "InspDesc": null, "InspDate": null, "InspPhoto": 0, "Installati": null, "Point_Numb": 2, "NAME": "Stairs" }, "geometry": { "type": "Point", "coordinates": [ -52.679342600800958, 47.571453871890299 ] } },
             { "type": "Feature", "properties": { "OBJECTID": 5, "FEATURE_ID": "F", "TRAIL": "SJ1", "POINT_NAME": "3", "FCODE": "F", "YEAR_": 2012, "ParkID": "SJ1", "Link": null, "Maintenanc": null, "InspCode": 0, "InspDesc": null, "InspDate": null, "InspPhoto": 0, "Installati": null, "Point_Numb": 3, "NAME": "North Head" }, "geometry": { "type": "Point", "coordinates": [ -52.676320244899877, 47.567999331248565 ] } },
             { "type": "Feature", "properties": { "OBJECTID": 6, "FEATURE_ID": "F", "TRAIL": "SJ1", "POINT_NAME": "4", "FCODE": "F", "YEAR_": 2012, "ParkID": "SJ1", "Link": null, "Maintenanc": null, "InspCode": 0, "InspDesc": null, "InspDate": null, "InspPhoto": 0, "Installati": null, "Point_Numb": 4, "NAME": "Ross' Valley, carved by a melting glacier" }, "geometry": { "type": "Point", "coordinates": [ -52.678537614099859, 47.567827724141146 ] } },
             { "type": "Feature", "properties": { "OBJECTID": 7, "FEATURE_ID": "F", "TRAIL": "SJ1", "POINT_NAME": "5", "FCODE": "F", "YEAR_": 2012, "ParkID": "SJ1", "Link": null, "Maintenanc": null, "InspCode": 0, "InspDesc": null, "InspDate": null, "InspPhoto": 0, "Installati": null, "Point_Numb": 5, "NAME": "Site of Marine Hospital" }, "geometry": { "type": "Point", "coordinates": [ -52.678925455204926, 47.56855689467659 ] } },
             { "type": "Feature", "properties": { "OBJECTID": 8, "FEATURE_ID": "F", "TRAIL": "SJ1", "POINT_NAME": "6", "FCODE": "F", "YEAR_": 2012, "ParkID": "SJ1", "Link": null, "Maintenanc": null, "InspCode": 0, "InspDesc": null, "InspDate": null, "InspPhoto": 0, "Installati": null, "Point_Numb": 6, "NAME": "Devil's Cleft, a fault boundary between" }, "geometry": { "type": "Point", "coordinates": [ -52.682175437951464, 47.568126164577528 ] } },
             { "type": "Feature", "properties": { "OBJECTID": 9, "FEATURE_ID": "F", "TRAIL": "SJ1", "POINT_NAME": "7", "FCODE": "F", "YEAR_": 2012, "ParkID": "SJ1", "Link": null, "Maintenanc": null, "InspCode": 0, "InspDesc": null, "InspDate": null, "InspPhoto": 0, "Installati": null, "Point_Numb": 7, "NAME": "Chain Rock Battery (1660's)" }, "geometry": { "type": "Point", "coordinates": [ -52.687174242287639, 47.56751652923122 ] } },
             { "type": "Feature", "properties": { "OBJECTID": 10, "FEATURE_ID": "F", "TRAIL": "SJ1", "POINT_NAME": "8", "FCODE": "F", "YEAR_": 2012, "ParkID": "SJ1", "Link": null, "Maintenanc": null, "InspCode": 0, "InspDesc": null, "InspDate": null, "InspPhoto": 0, "Installati": null, "Point_Numb": 8, "NAME": "Chain Rock held chain booms to protect the Narrows" }, "geometry": { "type": "Point", "coordinates": [ -52.687677970505938, 47.566857749637883 ] } }

]
}
